{
"type": "FeatureCollection",
"name": "venues-point",
"crs": { "type": "name", "properties": { "name": "urn:ogc:def:crs:OGC:1.3:CRS84" } },
"features": [
{ "type": "Feature", "properties": { "Venue": "Auersperg Palais" }, "geometry": { "type": "Point", "coordinates": [ 16.354978200000062, 48.207381100000077 ] } },
{ "type": "Feature", "properties": { "Venue": "Lichtenstein Palais" }, "geometry": { "type": "Point", "coordinates": [ 16.360357200000067, 48.222402100000068 ] } },
{ "type": "Feature", "properties": { "Venue": "See link https://www.austriasites.com/vienna/bezirk02_erstes_kaffeehaus.htm There was a fire and also a flood - if it still exists today, it has been remodeled. It was owned by Herr Benko." }, "geometry": { "type": "Point", "coordinates": [ 0.0, 0.0 ] } },
{ "type": "Feature", "properties": { "Venue": null }, "geometry": { "type": "Point", "coordinates": [ 16.403156600000045, 48.213485100000071 ] } },
{ "type": "Feature", "properties": { "Venue": "Ferdinand v. Stockhammer Privathaus (Later it belonged to Herr. V. Hohenadel" }, "geometry": { "type": "Point", "coordinates": [ 0.0, 0.0 ] } },
{ "type": "Feature", "properties": { "Venue": "House concert location" }, "geometry": { "type": "Point", "coordinates": [ 0.0, 0.0 ] } },
{ "type": "Feature", "properties": { "Venue": "Schlosstheater Schönbrunn" }, "geometry": { "type": "Point", "coordinates": [ 16.312429900000041, 48.185915800000032 ] } },
{ "type": "Feature", "properties": { "Venue": "Stadtgute" }, "geometry": { "type": "Point", "coordinates": [ 0.0, 0.0 ] } },
{ "type": "Feature", "properties": { "Venue": "Streicher-Hof" }, "geometry": { "type": "Point", "coordinates": [ 16.386691600000063, 48.199587700000052 ] } },
{ "type": "Feature", "properties": { "Venue": "Theater in der Josephstadt" }, "geometry": { "type": "Point", "coordinates": [ 16.350948, 48.209497200000044 ] } },
{ "type": "Feature", "properties": { "Venue": "Theater in der Leopoldstadt" }, "geometry": { "type": "Point", "coordinates": [ 16.38360810000006, 48.215119700000059 ] } },
{ "type": "Feature", "properties": { "Venue": "Theater zu Hietzing" }, "geometry": { "type": "Point", "coordinates": [ 16.298143800000048, 48.184795 ] } },
{ "type": "Feature", "properties": { "Venue": "Universitätssaal" }, "geometry": { "type": "Point", "coordinates": [ 16.377542900000037, 48.208327 ] } },
{ "type": "Feature", "properties": { "Venue": "Vinzenz Neuling" }, "geometry": { "type": "Point", "coordinates": [ 0.0, 0.0 ] } },
{ "type": "Feature", "properties": { "Venue": "Wollzeile Nr. 827 - house concert" }, "geometry": { "type": "Point", "coordinates": [ 0.0, 0.0 ] } },
{ "type": "Feature", "properties": { "Venue": "Zum Auge Gottes" }, "geometry": { "type": "Point", "coordinates": [ 0.0, 0.0 ] } },
{ "type": "Feature", "properties": { "Venue": "Zum Römischen Kaiser" }, "geometry": { "type": "Point", "coordinates": [ 16.36614510000004, 48.212198 ] } },
{ "type": "Feature", "properties": { "Venue": "Zur Mehlgrube" }, "geometry": { "type": "Point", "coordinates": [ 0.0, 0.0 ] } },
{ "type": "Feature", "properties": { "Venue": "Wilhelminenberg Schloss" }, "geometry": { "type": "Point", "coordinates": [ 16.28555190000003, 48.219562500000052 ] } },
{ "type": "Feature", "properties": { "Venue": "Schwarzenberg Palais" }, "geometry": { "type": "Point", "coordinates": [ 16.377487200000076, 48.198036900000034 ] } },
{ "type": "Feature", "properties": { "Venue": "Grassalkowitiz Palais" }, "geometry": { "type": "Point", "coordinates": [ 16.376047700000072, 48.221848200000068 ] } },
{ "type": "Feature", "properties": { "Venue": "Franz Nitschner's residence" }, "geometry": { "type": "Point", "coordinates": [ 16.391057300000057, 48.201916600000061 ] } },
{ "type": "Feature", "properties": { "Venue": "Joseph Karl Rosenbaum's residence" }, "geometry": { "type": "Point", "coordinates": [ 16.368662700000073, 48.211834300000078 ] } },
{ "type": "Feature", "properties": { "Venue": "Baron Gottfried van Swieten residence" }, "geometry": { "type": "Point", "coordinates": [ 16.36633420000004, 48.212513200000046 ] } },
{ "type": "Feature", "properties": { "Venue": "Prince Lichnowsky residence 1" }, "geometry": { "type": "Point", "coordinates": [ 16.365291800000023, 48.208416600000078 ] } },
{ "type": "Feature", "properties": { "Venue": "Prince Lichnowsky residence 2" }, "geometry": null },
{ "type": "Feature", "properties": { "Venue": "Prince Rasumofaky's Palais" }, "geometry": { "type": "Point", "coordinates": [ 16.392283500000076, 48.2046 ] } },
{ "type": "Feature", "properties": { "Venue": "Countess Josephine Deym von Stritetz's residence" }, "geometry": { "type": "Point", "coordinates": [ 16.368868300000031, 48.207986 ] } },
{ "type": "Feature", "properties": { "Venue": "Burgtheater" }, "geometry": { "type": "Point", "coordinates": [ 16.366850900000031, 48.207920800000068 ] } },
{ "type": "Feature", "properties": { "Venue": "Ignaz Jahn Hall" }, "geometry": { "type": "Point", "coordinates": [ 16.372213400000078, 48.205511600000079 ] } },
{ "type": "Feature", "properties": { "Venue": "Winterpalais des Prinzen Eugen" }, "geometry": { "type": "Point", "coordinates": [ 16.373085700000047, 48.205464100000029 ] } },
{ "type": "Feature", "properties": { "Venue": "Lamberg Palais" }, "geometry": { "type": "Point", "coordinates": [ 16.367121300000065, 48.209226800000067 ] } },
{ "type": "Feature", "properties": { "Venue": "Esterházy Palais" }, "geometry": { "type": "Point", "coordinates": [ 16.367050300000074, 48.209644400000059 ] } },
{ "type": "Feature", "properties": { "Venue": "Fünfkirchnersches Haus, former Palais Seitenn" }, "geometry": { "type": "Point", "coordinates": [ 16.375771200000031, 48.209178700000052 ] } },
{ "type": "Feature", "properties": { "Venue": "Theater an Der Wien" }, "geometry": { "type": "Point", "coordinates": [ 16.364311800000053, 48.199440100000061 ] } },
{ "type": "Feature", "properties": { "Venue": "Emmanuel Försters' residence" }, "geometry": { "type": "Point", "coordinates": [ 16.373989300000062, 48.211905900000033 ] } },
{ "type": "Feature", "properties": { "Venue": "Kärntnertortheater" }, "geometry": { "type": "Point", "coordinates": [ 16.369749, 48.20405640000007 ] } },
{ "type": "Feature", "properties": { "Venue": "Gottfried Ignaz v. Ployer residence" }, "geometry": { "type": "Point", "coordinates": [ 16.355368500000054, 48.242274200000054 ] } },
{ "type": "Feature", "properties": { "Venue": "Apponyi family" }, "geometry": { "type": "Point", "coordinates": [ 0.0, 0.0 ] } },
{ "type": "Feature", "properties": { "Venue": "Heniksteinvilla" }, "geometry": { "type": "Point", "coordinates": [ 16.345637600000032, 48.241711400000042 ] } },
{ "type": "Feature", "properties": { "Venue": "Marianna Martinez Salon" }, "geometry": { "type": "Point", "coordinates": [ 16.375402, 48.205764200000033 ] } },
{ "type": "Feature", "properties": { "Venue": "Maria Theresia von Paradis 1" }, "geometry": { "type": "Point", "coordinates": [ 16.375417700000071, 48.211888800000054 ] } },
{ "type": "Feature", "properties": { "Venue": "Maria Theresia von Paradis 2" }, "geometry": { "type": "Point", "coordinates": [ 16.375568, 48.211533 ] } },
{ "type": "Feature", "properties": { "Venue": "Maria Theresia von Paradis 3" }, "geometry": { "type": "Point", "coordinates": [ 16.388993400000061, 48.203619300000071 ] } },
{ "type": "Feature", "properties": { "Venue": "Maria Theresia von Paradis 4" }, "geometry": { "type": "Point", "coordinates": [ 16.375816500000042, 48.211747500000058 ] } },
{ "type": "Feature", "properties": { "Venue": "Maria Theresia von Paraidis 5" }, "geometry": { "type": "Point", "coordinates": [ 16.376102500000059, 48.211326700000029 ] } },
{ "type": "Feature", "properties": { "Venue": "Maria Theresia von Paradis 6" }, "geometry": { "type": "Point", "coordinates": [ 16.373942700000043, 48.206675300000029 ] } },
{ "type": "Feature", "properties": { "Venue": "Maria Theresia von Paradis 7" }, "geometry": { "type": "Point", "coordinates": [ 16.366845900000044, 48.208330200000034 ] } },
{ "type": "Feature", "properties": { "Venue": "Maria Theresia von Paradis 8" }, "geometry": { "type": "Point", "coordinates": [ 16.375567700000033, 48.211532500000033 ] } },
{ "type": "Feature", "properties": { "Venue": "Mortiz von Fries's residence (Pallavicinipalais)" }, "geometry": { "type": "Point", "coordinates": [ 16.367694500000027, 48.206629700000065 ] } },
{ "type": "Feature", "properties": { "Venue": "Starhemberg Palais" }, "geometry": { "type": "Point", "coordinates": [ 16.369501600000035, 48.207404700000041 ] } },
{ "type": "Feature", "properties": { "Venue": "Windischgrätz Palais" }, "geometry": { "type": "Point", "coordinates": [ 16.367632700000058, 48.212662800000032 ] } },
{ "type": "Feature", "properties": { "Venue": "Mozart's Vienna Apartment" }, "geometry": { "type": "Point", "coordinates": [ 16.37499420000006, 48.208278300000075 ] } },
{ "type": "Feature", "properties": { "Venue": "Peter von Braun's residence" }, "geometry": { "type": "Point", "coordinates": [ 16.367339, 48.208357300000046 ] } },
{ "type": "Feature", "properties": { "Venue": "Nathan Adam von Arnstein's Residence" }, "geometry": { "type": "Point", "coordinates": [ 16.368547900000067, 48.20728790000004 ] } },
{ "type": "Feature", "properties": { "Venue": "Joeseph Quarin's residence" }, "geometry": { "type": "Point", "coordinates": [ 16.367339, 48.208357300000046 ] } },
{ "type": "Feature", "properties": { "Venue": "Wallenstein residence (espcially Mme Wallenstein" }, "geometry": { "type": "Point", "coordinates": [ 16.364828900000077, 48.211124100000063 ] } },
{ "type": "Feature", "properties": { "Venue": "Thurn-Valsassina-Palais\n" }, "geometry": { "type": "Point", "coordinates": [ 16.367136200000061, 48.188302200000066 ] } },
{ "type": "Feature", "properties": { "Venue": "Haus und Garten des Freyh. v. Puthon" }, "geometry": { "type": "Point", "coordinates": [ 0.0, 0.0 ] } },
{ "type": "Feature", "properties": { "Venue": "Rittersburg residence/ Palais Seitern" }, "geometry": { "type": "Point", "coordinates": [ 16.375771200000031, 48.209178700000052 ] } },
{ "type": "Feature", "properties": { "Venue": "Zois Family Salon" }, "geometry": { "type": "Point", "coordinates": [ 16.372188400000027, 48.208090500000026 ] } },
{ "type": "Feature", "properties": { "Venue": "Trattnerhof" }, "geometry": { "type": "Point", "coordinates": [ 16.370505200000025, 48.208799800000065 ] } },
{ "type": "Feature", "properties": { "Venue": "Freihaustheater auf der Wieden" }, "geometry": { "type": "Point", "coordinates": [ 16.366913400000044, 48.198895900000082 ] } },
{ "type": "Feature", "properties": { "Venue": "Schouppe Salon" }, "geometry": { "type": "Point", "coordinates": [ 16.36377710000005, 48.212443300000075 ] } },
{ "type": "Feature", "properties": { "Venue": "Anton von Spielmann residence" }, "geometry": { "type": "Point", "coordinates": [ 16.369829700000025, 48.20846540000008 ] } },
{ "type": "Feature", "properties": { "Venue": "Kinksy Palais" }, "geometry": { "type": "Point", "coordinates": [ 16.363210700000025, 48.209436800000049 ] } },
{ "type": "Feature", "properties": { "Venue": "Thun Salon" }, "geometry": { "type": "Point", "coordinates": [ 16.371629200000029, 48.203744700000072 ] } },
{ "type": "Feature", "properties": { "Venue": "Dimitry Golitzin" }, "geometry": { "type": "Point", "coordinates": [ 16.355738400000064, 48.205795100000046 ] } },
{ "type": "Feature", "properties": { "Venue": "Trautson Palais" }, "geometry": { "type": "Point", "coordinates": [ 16.38360810000006, 48.215119700000059 ] } },
{ "type": "Feature", "properties": { "Venue": "Carltheater/ Theater in der Leopldstadt" }, "geometry": { "type": "Point", "coordinates": [ 16.377839200000039, 48.207753600000046 ] } },
{ "type": "Feature", "properties": { "Venue": "Apollo-Saal" }, "geometry": null },
{ "type": "Feature", "properties": { "Venue": "Paarpalais" }, "geometry": { "type": "Point", "coordinates": [ 16.389544900000033, 48.203219600000068 ] } },
{ "type": "Feature", "properties": { "Venue": "NOT YET FINISHED" }, "geometry": { "type": "Point", "coordinates": [ 16.363790900000026, 48.211448100000041 ] } },
{ "type": "Feature", "properties": { "Venue": "Zum Roten Hahn" }, "geometry": { "type": "Point", "coordinates": [ 0.0, 0.0 ] } },
{ "type": "Feature", "properties": { "Venue": "Augarten" }, "geometry": { "type": "Point", "coordinates": [ 16.379465200000027, 48.223702700000047 ] } },
{ "type": "Feature", "properties": { "Venue": "Blindeninstitut" }, "geometry": { "type": "Point", "coordinates": [ 16.399391300000048, 48.206726900000035 ] } },
{ "type": "Feature", "properties": { "Venue": "Burgtheater" }, "geometry": { "type": "Point", "coordinates": [ 16.361381700000038, 48.210323500000072 ] } },
{ "type": "Feature", "properties": { "Venue": "Conservatorium (MDW)" }, "geometry": { "type": "Point", "coordinates": [ 16.386045, 48.202085500000067 ] } },
{ "type": "Feature", "properties": { "Venue": "Freyherr v. Wetzlarsches Haus" }, "geometry": { "type": "Point", "coordinates": [ 16.362296800000024, 48.214436400000068 ] } },
{ "type": "Feature", "properties": { "Venue": "Großer Redoutensaal" }, "geometry": { "type": "Point", "coordinates": [ 0.0, 0.0 ] } },
{ "type": "Feature", "properties": { "Venue": "Gundelhof" }, "geometry": { "type": "Point", "coordinates": [ 16.371887800000025, 48.209513800000082 ] } },
{ "type": "Feature", "properties": { "Venue": "Kärntnerstraße Nr. 1101 (Josef Anton Bridi's home?) He is an opus 1 subscriber." }, "geometry": { "type": "Point", "coordinates": [ 0.0, 0.0 ] } },
{ "type": "Feature", "properties": { "Venue": "Kleiner Redoutensaal" }, "geometry": { "type": "Point", "coordinates": [ 0.0, 0.0 ] } },
{ "type": "Feature", "properties": { "Venue": "Landständischer Saal" }, "geometry": { "type": "Point", "coordinates": [ 0.0, 0.0 ] } },
{ "type": "Feature", "properties": { "Venue": "Mehlgrube" }, "geometry": null },
{ "type": "Feature", "properties": { "Venue": "Minoritenplatz Nr. 50" }, "geometry": { "type": "Point", "coordinates": [ 16.364037900000028, 48.20995 ] } },
{ "type": "Feature", "properties": { "Venue": "Müllerscher Saal" }, "geometry": { "type": "Point", "coordinates": [ 0.0, 0.0 ] } },
{ "type": "Feature", "properties": { "Venue": "Musikverein" }, "geometry": { "type": "Point", "coordinates": [ 16.372493500000076, 48.200564200000031 ] } }
]
}
